[{"model": "craed.aed", "pk": 1, "fields": {"name": "World Gym Tijuana", "description": "Disponible Desfibrilador Automatico Externo", "location": "SRID=4326;POINT (-117.0096155300208 32.52174913333495)", "address": "", "number": null, "neighborhood": "", "city": "Tijuana", "state": "BC", "country": "MX", "public": true, "zipcode": "", "contact": 1, "verified": true, "date_created": "2016-08-30", "date_verified": "2016-08-30", "date_modified": "2016-08-30"}}, {"model": "craed.aed", "pk": 2, "fields": {"name": "Palacio Municipal", "description": "Desfibrilador Automatico Externo,\nLocalizado en la entrada de palacio municipal por la explanada al subir las escaleras a mano derecha.", "location": "SRID=4326;POINT (-117.0187759993473 32.53249749925816)", "address": "", "number": null, "neighborhood": "", "city": "Tijuana", "state": "BC", "country": "MX", "public": true, "zipcode": "", "contact": 1, "verified": true, "date_created": "2016-08-30", "date_verified": "2016-08-30", "date_modified": "2016-08-30"}}, {"model": "craed.aed", "pk": 3, "fields": {"name": "Direccion Municipal de Salud", "description": "Desfibrilador Automatico Externo", "location": "SRID=4326;POINT (-117.0347419618859 32.53794530160841)", "address": "Calle Coahuila", "number": 8307, "neighborhood": "Zona Norte", "city": "Tijuana", "state": "BC", "country": "MX", "public": true, "zipcode": "22724", "contact": 1, "verified": true, "date_created": "2016-08-30", "date_verified": "2016-08-30", "date_modified": "2016-09-09"}}, {"model": "craed.aed", "pk": 4, "fields": {"name": "Preparatoria Federal L\u00e1zaro C\u00e1rdenas", "description": "Cuenta con dos Desfibriladores Automaticos Externos,1 en oficina del director y el otro ubicado en prefectura", "location": "SRID=4326;POINT (-117.003638379605 32.51567538691747)", "address": "Rampa Aguacaliente", "number": null, "neighborhood": "", "city": "Tijuana", "state": "BC", "country": "MX", "public": true, "zipcode": "22014", "contact": 1, "verified": true, "date_created": "2016-08-30", "date_verified": "2016-08-30", "date_modified": "2016-09-09"}}, {"model": "craed.aed", "pk": 5, "fields": {"name": "Aeropuerto Internacional de Tijuana", "description": "Desfibrilador Automatico Externo ubicado en consultorio del aeropuerto", "location": "SRID=4326;POINT (-116.9735078555687 32.5464617907519)", "address": "", "number": null, "neighborhood": "", "city": "Tijuana", "state": "BC", "country": "MX", "public": true, "zipcode": "", "contact": 1, "verified": true, "date_created": "2016-08-30", "date_verified": "2016-08-30", "date_modified": "2016-08-30"}}, {"model": "craed.aed", "pk": 6, "fields": {"name": "Casa de la Cultura Tijuana", "description": "Desfibrilador Automatico Externo ubicado en piso principal", "location": "SRID=4326;POINT (-117.0516705894569 32.53151903233329)", "address": "", "number": null, "neighborhood": "", "city": "Tijuana", "state": "BC", "country": "MX", "public": true, "zipcode": "", "contact": 1, "verified": true, "date_created": "2016-08-30", "date_verified": "2016-08-30", "date_modified": "2016-08-30"}}, {"model": "craed.aed", "pk": 7, "fields": {"name": "Ayuntamiento de Tijuana DIF", "description": "Desfibrilador Automatico Externo ubicado en las instalaciones del Dif Tijuana", "location": "SRID=4326;POINT (-116.944706459033 32.50348834393325)", "address": "", "number": null, "neighborhood": "", "city": "Tijuana", "state": "BC", "country": "MX", "public": true, "zipcode": "", "contact": 1, "verified": true, "date_created": "2016-08-30", "date_verified": "2016-08-30", "date_modified": "2016-08-30"}}, {"model": "craed.aed", "pk": 8, "fields": {"name": "Oficinas del Parque Morelos", "description": "Desfibrilador Automatico Externo ubicado en las oficinas del parque morelos.", "location": "SRID=4326;POINT (-116.9260432353803 32.4970615215583)", "address": "", "number": null, "neighborhood": "", "city": "Tijuana", "state": "BC", "country": "MX", "public": true, "zipcode": "", "contact": 1, "verified": true, "date_created": "2016-08-30", "date_verified": "2016-08-30", "date_modified": "2016-08-30"}}, {"model": "craed.aed", "pk": 9, "fields": {"name": "IMDET", "description": "Desfibrilador Autmatico Externo ubicado en las oficinas del CREA.", "location": "SRID=4326;POINT (-117.0134117928648 32.52786439428515)", "address": "", "number": null, "neighborhood": "", "city": "Tijuana", "state": "BC", "country": "MX", "public": true, "zipcode": "", "contact": 1, "verified": true, "date_created": "2016-08-30", "date_verified": "2016-08-30", "date_modified": "2016-08-30"}}, {"model": "craed.aed", "pk": 10, "fields": {"name": "Cruz Roja Tijuana", "description": "Desfibrilador Automatioc Externo de uso publico, ubicado dentro de las instalaciones de la Cruz Roja", "location": "SRID=4326;POINT (-116.9632894764155 32.50714123125003)", "address": "", "number": null, "neighborhood": "", "city": "Tijuana", "state": "BC", "country": "MX", "public": true, "zipcode": "", "contact": 1, "verified": true, "date_created": "2016-08-30", "date_verified": "2016-08-30", "date_modified": "2016-08-30"}}, {"model": "craed.aed", "pk": 11, "fields": {"name": "Medtronic", "description": "Uso privado", "location": "SRID=4326;POINT (-116.9232149588327 32.50564939449419)", "address": "", "number": null, "neighborhood": "", "city": "Tijuana", "state": "BC", "country": "MX", "public": false, "zipcode": "", "contact": 1, "verified": true, "date_created": "2016-08-30", "date_verified": "2016-08-30", "date_modified": "2016-08-30"}}, {"model": "craed.aed", "pk": 12, "fields": {"name": "Hospital Oasis", "description": "Cuenta con un DAE de uso privado", "location": "SRID=4326;POINT (-117.1191373999986 32.53140330003686)", "address": "", "number": null, "neighborhood": "", "city": "Tijuana", "state": "BC", "country": "MX", "public": false, "zipcode": "", "contact": 1, "verified": true, "date_created": "2016-08-30", "date_verified": "2016-08-30", "date_modified": "2016-08-30"}}, {"model": "craed.aed", "pk": 13, "fields": {"name": "Modera Hospital Familiar", "description": "Cuenta con dos desfibriladores uso privado", "location": "SRID=4326;POINT (-117.0158953004027 32.5226700003931)", "address": "", "number": null, "neighborhood": "", "city": "Tijuana", "state": "BC", "country": "MX", "public": false, "zipcode": "", "contact": 1, "verified": true, "date_created": "2016-08-30", "date_verified": "2016-08-30", "date_modified": "2016-08-30"}}, {"model": "craed.aed", "pk": 14, "fields": {"name": "Hospital CER", "description": "Cuenta con dos desfibriladores", "location": "SRID=4326;POINT (-117.0132333002386 32.52320290014011)", "address": "", "number": null, "neighborhood": "", "city": "Tijuana", "state": "BC", "country": "MX", "public": true, "zipcode": "", "contact": 1, "verified": true, "date_created": "2016-08-30", "date_verified": "2016-08-30", "date_modified": "2016-08-30"}}, {"model": "craed.aed", "pk": 15, "fields": {"name": "Hospital Excel", "description": "", "location": "SRID=4326;POINT (-117.0108957518136 32.52089301486704)", "address": "", "number": null, "neighborhood": "", "city": "Tijuana", "state": "BC", "country": "MX", "public": true, "zipcode": "", "contact": 1, "verified": true, "date_created": "2016-08-30", "date_verified": "2016-08-30", "date_modified": "2016-08-30"}}, {"model": "craed.aed", "pk": 16, "fields": {"name": "Hospital Vida", "description": "", "location": "SRID=4326;POINT (-116.9886857609062 32.50770427546126)", "address": "", "number": null, "neighborhood": "", "city": "Tijuana", "state": "BC", "country": "MX", "public": true, "zipcode": "", "contact": 1, "verified": true, "date_created": "2016-08-30", "date_verified": "2016-08-30", "date_modified": "2016-08-30"}}, {"model": "craed.aed", "pk": 17, "fields": {"name": "CUMAI UABC", "description": "", "location": "SRID=4326;POINT (-116.9687667002326 32.5305168999935)", "address": "", "number": null, "neighborhood": "", "city": "Tijuana", "state": "BC", "country": "MX", "public": true, "zipcode": "", "contact": 1, "verified": true, "date_created": "2016-08-30", "date_verified": "2016-08-30", "date_modified": "2016-08-30"}}, {"model": "craed.aed", "pk": 18, "fields": {"name": "Fisher & paykel healthcare S.A. de C.V.", "description": "Cuentan con 2 equipos, uno en enfermer\u00eda y otro en el piso de producci\u00f3n.", "location": "SRID=4326;POINT (-116.9918359817066 32.45857859682796)", "address": "", "number": null, "neighborhood": "", "city": "Tijuana", "state": "BC", "country": "MX", "public": true, "zipcode": "", "contact": 1, "verified": true, "date_created": "2016-08-30", "date_verified": "2016-08-30", "date_modified": "2016-08-30"}}, {"model": "craed.aed", "pk": 19, "fields": {"name": "Amex de Mexico", "description": "Cualquier persona puede solicitarlo y tienen personal capacitado, el encargado es el Dr. Sabino Ram\u00edrez", "location": "SRID=4326;POINT (-116.9165934003241 32.53530431898372)", "address": "Calle 5 Sur", "number": 160, "neighborhood": "Nueva Tijuana", "city": "Tijuana", "state": "BC", "country": "MX", "public": true, "zipcode": "22454", "contact": 1, "verified": true, "date_created": "2016-08-30", "date_verified": "2016-08-30", "date_modified": "2016-09-14"}}, {"model": "craed.aed", "pk": 20, "fields": {"name": "Zodiac Aerospace Tijuana", "description": "", "location": "SRID=4326;POINT (-116.9771838997427 32.44556659954088)", "address": "", "number": null, "neighborhood": "", "city": "Tijuana", "state": "BC", "country": "MX", "public": true, "zipcode": "", "contact": 1, "verified": true, "date_created": "2016-08-30", "date_verified": "2016-08-30", "date_modified": "2016-08-30"}}, {"model": "craed.aed", "pk": 21, "fields": {"name": "Samsung", "description": "", "location": "SRID=4326;POINT (-116.870305499624 32.45359459998649)", "address": "", "number": null, "neighborhood": "", "city": "Tijuana", "state": "BC", "country": "MX", "public": true, "zipcode": "", "contact": 1, "verified": true, "date_created": "2016-08-30", "date_verified": "2016-08-30", "date_modified": "2016-08-30"}}, {"model": "craed.aed", "pk": 22, "fields": {"name": "Unidad Deportiva Ermita", "description": "", "location": "SRID=4326;POINT (-116.9724386000107 32.51333909956231)", "address": "", "number": null, "neighborhood": "", "city": "Tijuana", "state": "BC", "country": "MX", "public": true, "zipcode": "", "contact": 1, "verified": true, "date_created": "2016-08-30", "date_verified": "2016-08-30", "date_modified": "2016-08-30"}}, {"model": "craed.aed", "pk": 23, "fields": {"name": "C.H.I.P.S.A The Gerson and Ibogaine Hospital", "description": "", "location": "SRID=4326;POINT (-117.116760914928 32.5183463320763)", "address": "Avenida de las Nubes", "number": null, "neighborhood": "", "city": "Tijuana", "state": "BC", "country": "MX", "public": true, "zipcode": "22505", "contact": 1, "verified": true, "date_created": "2016-08-30", "date_verified": "2016-08-30", "date_modified": "2016-09-13"}}, {"model": "craed.aed", "pk": 24, "fields": {"name": "Dr. Bucio Surgicenter", "description": "Cuenta con 2 Desfibriladores \nNivel C-2 Suite No.4 Torres de Agua Caliente", "location": "SRID=4326;POINT (-117.0049028212829 32.5132393321886)", "address": "", "number": null, "neighborhood": "", "city": "Tijuana", "state": "BC", "country": "MX", "public": true, "zipcode": "", "contact": 1, "verified": true, "date_created": "2016-08-30", "date_verified": "2016-08-30", "date_modified": "2016-08-30"}}, {"model": "craed.aed", "pk": 25, "fields": {"name": "Hospital de los Arcangeles", "description": "", "location": "SRID=4326;POINT (-116.957646599134 32.49042369876631)", "address": "AvenidaGuadalajara", "number": null, "neighborhood": "", "city": "Tijuana", "state": "BC", "country": "MX", "public": true, "zipcode": "22116", "contact": 1, "verified": true, "date_created": "2016-08-30", "date_verified": "2016-08-30", "date_modified": "2016-09-10"}}, {"model": "craed.aed", "pk": 26, "fields": {"name": "Schlage deMexico, Allegion", "description": "", "location": "SRID=4326;POINT (-116.8620353001781 32.44651719965921)", "address": "", "number": null, "neighborhood": "", "city": "Tijuana", "state": "BC", "country": "MX", "public": true, "zipcode": "", "contact": 1, "verified": true, "date_created": "2016-08-30", "date_verified": "2016-08-30", "date_modified": "2016-08-30"}}, {"model": "craed.aed", "pk": 27, "fields": {"name": "Foxconn", "description": "", "location": "SRID=4326;POINT (-116.9247764002177 32.5001868001019)", "address": "", "number": null, "neighborhood": "", "city": "Tijuana", "state": "BC", "country": "MX", "public": true, "zipcode": "", "contact": 1, "verified": true, "date_created": "2016-08-30", "date_verified": "2016-08-30", "date_modified": "2016-08-30"}}, {"model": "craed.aed", "pk": 28, "fields": {"name": "Welch Allyn", "description": "", "location": "SRID=4326;POINT (-116.8984478001175 32.52624690019769)", "address": "", "number": null, "neighborhood": "", "city": "Tijuana", "state": "BC", "country": "MX", "public": true, "zipcode": "", "contact": 1, "verified": true, "date_created": "2016-08-30", "date_verified": "2016-08-30", "date_modified": "2016-08-30"}}, {"model": "craed.aed", "pk": 29, "fields": {"name": "Easton Hockey", "description": "", "location": "SRID=4326;POINT (-116.9043813447931 32.49948450753686)", "address": "", "number": null, "neighborhood": "", "city": "Tijuana", "state": "BC", "country": "MX", "public": true, "zipcode": "", "contact": 1, "verified": true, "date_created": "2016-08-30", "date_verified": "2016-08-30", "date_modified": "2016-08-30"}}, {"model": "craed.aed", "pk": 30, "fields": {"name": "Centro Medico Tijuana", "description": "", "location": "SRID=4326;POINT (-117.0200651092715 32.51629759909256)", "address": "", "number": null, "neighborhood": "", "city": "Tijuana", "state": "BC", "country": "MX", "public": true, "zipcode": "", "contact": 1, "verified": true, "date_created": "2016-08-30", "date_verified": "2016-08-30", "date_modified": "2016-08-30"}}, {"model": "craed.aed", "pk": 31, "fields": {"name": "Clinica Hospital Filadelfia", "description": "", "location": "SRID=4326;POINT (-116.8771739999008 32.4736440975577)", "address": "", "number": null, "neighborhood": "", "city": "Tijuana", "state": "BC", "country": "MX", "public": true, "zipcode": "", "contact": 1, "verified": true, "date_created": "2016-08-30", "date_verified": "2016-08-30", "date_modified": "2016-08-30"}}, {"model": "craed.aed", "pk": 32, "fields": {"name": "Limarp Surgical Unit", "description": "", "location": "SRID=4326;POINT (-117.0067160001689 32.51266040004876)", "address": "", "number": null, "neighborhood": "", "city": "Tijuana", "state": "BC", "country": "MX", "public": true, "zipcode": "", "contact": 1, "verified": true, "date_created": "2016-08-30", "date_verified": "2016-08-30", "date_modified": "2016-08-30"}}, {"model": "craed.aed", "pk": 33, "fields": {"name": "Clinica Santa Brigida", "description": "", "location": "SRID=4326;POINT (-117.0570618998137 32.51249942079855)", "address": "", "number": null, "neighborhood": "", "city": "Tijuana", "state": "BC", "country": "MX", "public": true, "zipcode": "", "contact": 1, "verified": true, "date_created": "2016-08-30", "date_verified": "2016-08-30", "date_modified": "2016-08-30"}}, {"model": "craed.aed", "pk": 34, "fields": {"name": "Clinica Dr. Carrillo Pe\u00f1a", "description": "", "location": "SRID=4326;POINT (-116.9859709999436 32.51974699978852)", "address": "", "number": null, "neighborhood": "", "city": "Tijuana", "state": "BC", "country": "MX", "public": true, "zipcode": "", "contact": 1, "verified": true, "date_created": "2016-08-30", "date_verified": "2016-08-30", "date_modified": "2016-08-30"}}]
